[
  {"vol":"congo-free-state","name":"Kinshasa","title":"Léopoldville","lat":-4.32,"lon":15.32},
  {"vol":"congo-free-state","name":"Boma","title":"The original capital","lat":-5.85,"lon":13.05},
  {"vol":"congo-free-state","name":"Matadi","title":"The port at the rapids","lat":-5.82,"lon":13.45},
  {"vol":"congo-free-state","name":"Matadi–Kinshasa railway","title":"The colonial spine","lat":-5.30,"lon":14.20},
  {"vol":"congo-free-state","name":"Inga","title":"The rapids","lat":-5.52,"lon":13.62},
  {"vol":"congo-free-state","name":"Kisangani","title":"Stanley Falls","lat":0.52,"lon":25.20},
  {"vol":"congo-free-state","name":"Mbandaka","title":"The middle river","lat":0.05,"lon":18.27},
  {"vol":"congo-free-state","name":"Lubumbashi","title":"The mining capital","lat":-11.66,"lon":27.48},
  {"vol":"congo-free-state","name":"Tervuren","title":"The AfricaMuseum","lat":50.83,"lon":4.51},
  {"vol":"congo-free-state","name":"Brussels — Cinquantenaire","title":"The Cinquantenaire and the Royal Palace","lat":50.84,"lon":4.39},
  {"vol":"congo-free-state","name":"Antwerp","title":"The port that received the rubber","lat":51.22,"lon":4.40},
  {"vol":"congo-free-state","name":"Ostend","title":"The king's seaside","lat":51.23,"lon":2.92},
  {"vol":"congo-free-state","name":"London","title":"The Anti-Slavery International archive","lat":51.51,"lon":-0.13},
  {"vol":"congo-free-state","name":"Brussels — Lumumba Square","title":"The Lumumba memorial","lat":50.84,"lon":4.37},
  {"vol":"congo-free-state","name":"Geneva","title":"The International Labour Organisation","lat":46.20,"lon":6.14},

  {"vol":"cordoba","name":"Córdoba — Mezquita","title":"The Great Mosque (Mezquita-Catedral)","lat":37.88,"lon":-4.78},
  {"vol":"cordoba","name":"Madinat al-Zahra","title":"The palace-city","lat":37.89,"lon":-4.87},
  {"vol":"cordoba","name":"Córdoba — Jewish Quarter","title":"The Jewish Quarter and the medieval city","lat":37.88,"lon":-4.78},
  {"vol":"cordoba","name":"Granada","title":"The Alhambra","lat":37.18,"lon":-3.59},
  {"vol":"cordoba","name":"Seville","title":"The Almohad and Mudejar inheritance","lat":37.39,"lon":-5.99},
  {"vol":"cordoba","name":"Toledo","title":"The translation school","lat":39.86,"lon":-4.02},
  {"vol":"cordoba","name":"Zaragoza","title":"The Aljafería","lat":41.66,"lon":-0.89},
  {"vol":"cordoba","name":"Almería","title":"The Alcazaba","lat":36.84,"lon":-2.46},
  {"vol":"cordoba","name":"Fez","title":"The Andalusian quarter","lat":34.04,"lon":-5.00},
  {"vol":"cordoba","name":"Tetouan","title":"The Morisco capital","lat":35.57,"lon":-5.37},
  {"vol":"cordoba","name":"Marrakech","title":"The Almohad capital","lat":31.63,"lon":-7.99},
  {"vol":"cordoba","name":"Istanbul","title":"The Sephardic settlement","lat":41.01,"lon":28.98},
  {"vol":"cordoba","name":"Salonika (Thessaloniki)","title":"The Mother of Israel","lat":40.64,"lon":22.94},
  {"vol":"cordoba","name":"El Escorial","title":"The royal library","lat":40.59,"lon":-4.15},
  {"vol":"cordoba","name":"Tunis","title":"Andalusi manuscripts","lat":36.81,"lon":10.18},

  {"vol":"east-germany","name":"Berlin — Wall Memorial","title":"Berlin Wall Memorial · Bernauer Strasse","lat":52.53,"lon":13.39},
  {"vol":"east-germany","name":"Berlin — Stasi Museum","title":"Stasi Museum · Normannenstrasse","lat":52.51,"lon":13.49},
  {"vol":"east-germany","name":"Berlin — DDR Museum","title":"DDR Museum","lat":52.52,"lon":13.40},
  {"vol":"east-germany","name":"Berlin — Karl-Marx-Allee","title":"Karl-Marx-Allee","lat":52.52,"lon":13.43},
  {"vol":"east-germany","name":"Berlin — Alexanderplatz","title":"Alexanderplatz and the Fernsehturm","lat":52.52,"lon":13.41},
  {"vol":"east-germany","name":"Leipzig","title":"The Nikolaikirche","lat":51.34,"lon":12.37},
  {"vol":"east-germany","name":"Dresden","title":"The Frauenkirche","lat":51.05,"lon":13.74},
  {"vol":"east-germany","name":"Eisenhüttenstadt","title":"The model socialist city","lat":52.15,"lon":14.65},
  {"vol":"east-germany","name":"Wittenberg","title":"Luther's town under socialism","lat":51.87,"lon":12.65},
  {"vol":"east-germany","name":"Prora · Rügen","title":"The seaside resort","lat":54.45,"lon":13.59},
  {"vol":"east-germany","name":"Marienborn","title":"The inner-German border crossing","lat":52.21,"lon":11.05},
  {"vol":"east-germany","name":"Mödlareuth","title":"\"Little Berlin\"","lat":50.41,"lon":11.85},
  {"vol":"east-germany","name":"Rostock & Warnemünde","title":"The Baltic port and resort","lat":54.09,"lon":12.14},
  {"vol":"east-germany","name":"Zwickau","title":"The Trabant factory","lat":50.72,"lon":12.49},
  {"vol":"east-germany","name":"Berlin — Hohenschönhausen","title":"The Stasi prison","lat":52.54,"lon":13.49},
  {"vol":"east-germany","name":"Bautzen","title":"The Sorbian heartland","lat":51.18,"lon":14.42},
  {"vol":"east-germany","name":"Weimar / Buchenwald","title":"Goethe's town and the camp","lat":51.00,"lon":11.25},
  {"vol":"east-germany","name":"Stralsund & Greifswald","title":"The Hanseatic Baltic","lat":54.31,"lon":13.09},

  {"vol":"green-ukraine","name":"Vladivostok","title":"The Pacific capital","lat":43.12,"lon":131.89},
  {"vol":"green-ukraine","name":"Khabarovsk","title":"The administrative centre","lat":48.48,"lon":135.08},
  {"vol":"green-ukraine","name":"Ussuriysk (Mykolsk-Ussuriysky)","title":"The First Congress site","lat":43.80,"lon":131.95},
  {"vol":"green-ukraine","name":"Blagoveshchensk","title":"The Amur frontier","lat":50.27,"lon":127.54},
  {"vol":"green-ukraine","name":"Chita","title":"The Trans-Baikal centre","lat":52.03,"lon":113.50},
  {"vol":"green-ukraine","name":"Sakhalin Island","title":"The penal-colony community","lat":50.30,"lon":143.00},
  {"vol":"green-ukraine","name":"Harbin","title":"The exiled Ukrainian community","lat":45.80,"lon":126.53},
  {"vol":"green-ukraine","name":"Edmonton","title":"Canadian Institute of Ukrainian Studies","lat":53.55,"lon":-113.49},
  {"vol":"green-ukraine","name":"New York","title":"Shevchenko Scientific Society","lat":40.71,"lon":-74.01},
  {"vol":"green-ukraine","name":"Kyiv","title":"Institute of Ukrainian Studies","lat":50.45,"lon":30.52},
  {"vol":"green-ukraine","name":"Toronto","title":"The Ukrainian-Canadian diaspora","lat":43.65,"lon":-79.38},
  {"vol":"green-ukraine","name":"Melbourne","title":"The Australian-Ukrainian community","lat":-37.81,"lon":144.96},

  {"vol":"inca","name":"Cuzco","title":"The imperial capital","lat":-13.52,"lon":-71.97},
  {"vol":"inca","name":"Sacsayhuamán","title":"The great fortress","lat":-13.51,"lon":-71.98},
  {"vol":"inca","name":"Pisac","title":"The Sacred Valley","lat":-13.42,"lon":-71.85},
  {"vol":"inca","name":"Ollantaytambo","title":"The fortress and royal estate","lat":-13.26,"lon":-72.27},
  {"vol":"inca","name":"Machu Picchu","title":"The cloud-forest royal estate","lat":-13.16,"lon":-72.55},
  {"vol":"inca","name":"Choquequirao","title":"The other Machu Picchu","lat":-13.40,"lon":-72.88},
  {"vol":"inca","name":"Tipón","title":"The hydraulic gardens","lat":-13.57,"lon":-71.78},
  {"vol":"inca","name":"Moray","title":"The agricultural research station","lat":-13.33,"lon":-72.20},
  {"vol":"inca","name":"Vilcabamba","title":"The last capital","lat":-12.80,"lon":-73.10},
  {"vol":"inca","name":"Raqchi","title":"The Temple of Viracocha","lat":-14.18,"lon":-71.39},
  {"vol":"inca","name":"Ingapirca","title":"The northern imperial site","lat":-2.55,"lon":-78.87},
  {"vol":"inca","name":"Tomebamba","title":"The Inca second capital","lat":-2.90,"lon":-79.00},
  {"vol":"inca","name":"Quito","title":"Atahualpa's home","lat":-0.22,"lon":-78.51},
  {"vol":"inca","name":"Tiwanaku","title":"The pre-Inca metropolis","lat":-16.55,"lon":-68.67},
  {"vol":"inca","name":"Isla del Sol","title":"The mythological origin point","lat":-16.03,"lon":-69.18},
  {"vol":"inca","name":"Potosí","title":"The colonial silver city","lat":-19.59,"lon":-65.75},
  {"vol":"inca","name":"Chan Chan","title":"The Chimú capital","lat":-8.10,"lon":-79.07},
  {"vol":"inca","name":"Pachacamac","title":"The coastal pilgrimage centre","lat":-12.26,"lon":-76.90},
  {"vol":"inca","name":"Purmamarca / Qhapaq Ñan","title":"The southern frontier","lat":-23.74,"lon":-65.50},
  {"vol":"inca","name":"San Pedro de Atacama","title":"The southernmost Inca outpost","lat":-22.91,"lon":-68.20},

  {"vol":"jerusalem","name":"Jerusalem — Old City","title":"The Holy Sepulchre","lat":31.78,"lon":35.23},
  {"vol":"jerusalem","name":"Acre (Akko)","title":"The second capital","lat":32.93,"lon":35.08},
  {"vol":"jerusalem","name":"Atlit","title":"Château Pèlerin","lat":32.69,"lon":34.94},
  {"vol":"jerusalem","name":"Belvoir Fortress","title":"Kokhav HaYarden","lat":32.59,"lon":35.51},
  {"vol":"jerusalem","name":"Caesarea Maritima","title":"The Roman port and Crusader citadel","lat":32.50,"lon":34.89},
  {"vol":"jerusalem","name":"Nazareth","title":"Crusader cathedral foundations","lat":32.70,"lon":35.30},
  {"vol":"jerusalem","name":"Kerak","title":"The lord of Oultrejourdain's castle","lat":31.18,"lon":35.70},
  {"vol":"jerusalem","name":"Montreal (Shobak)","title":"Mons Realis","lat":30.53,"lon":35.55},
  {"vol":"jerusalem","name":"Tripoli","title":"The county's capital","lat":34.43,"lon":35.84},
  {"vol":"jerusalem","name":"Byblos (Jbeil)","title":"The Frankish bishopric","lat":34.12,"lon":35.65},
  {"vol":"jerusalem","name":"Sidon (Saida)","title":"The Sea Castle","lat":33.56,"lon":35.37},
  {"vol":"jerusalem","name":"Beirut","title":"The lordship of Beirut","lat":33.89,"lon":35.50},
  {"vol":"jerusalem","name":"Krak des Chevaliers","title":"The Hospitallers' great castle","lat":34.76,"lon":36.29},
  {"vol":"jerusalem","name":"Margat (Marqab)","title":"The black castle","lat":35.15,"lon":35.95},
  {"vol":"jerusalem","name":"Saone (Sahyun)","title":"The frontier castle of Antioch","lat":35.60,"lon":36.05},
  {"vol":"jerusalem","name":"Tartus","title":"The last Templar position","lat":34.89,"lon":35.89},
  {"vol":"jerusalem","name":"Nicosia","title":"The Lusignan capital","lat":35.17,"lon":33.36},
  {"vol":"jerusalem","name":"Famagusta","title":"The medieval Mediterranean's wealthiest city","lat":35.13,"lon":33.94},
  {"vol":"jerusalem","name":"Rhodes","title":"The Hospitaller successor state","lat":36.43,"lon":28.22},
  {"vol":"jerusalem","name":"Valletta","title":"The Hospitaller capital","lat":35.90,"lon":14.51},

  {"vol":"ottoman","name":"Istanbul — Sultanahmet","title":"The imperial peninsula","lat":41.01,"lon":28.98},
  {"vol":"ottoman","name":"Istanbul — Süleymaniye","title":"Sinan's masterpieces","lat":41.02,"lon":28.96},
  {"vol":"ottoman","name":"Istanbul — Dolmabahçe","title":"The late empire","lat":41.04,"lon":29.00},
  {"vol":"ottoman","name":"Bursa","title":"The first Ottoman capital","lat":40.18,"lon":29.07},
  {"vol":"ottoman","name":"Edirne","title":"The Selimiye","lat":41.68,"lon":26.56},
  {"vol":"ottoman","name":"Sarajevo","title":"Ottoman capital of Bosnia","lat":43.86,"lon":18.41},
  {"vol":"ottoman","name":"Mostar","title":"The Old Bridge","lat":43.34,"lon":17.81},
  {"vol":"ottoman","name":"Plovdiv","title":"An Ottoman provincial capital","lat":42.14,"lon":24.75},
  {"vol":"ottoman","name":"Thessaloniki","title":"Sephardic Jerusalem of the Balkans","lat":40.64,"lon":22.94},
  {"vol":"ottoman","name":"Cairo","title":"Ottoman Cairo","lat":30.05,"lon":31.25},
  {"vol":"ottoman","name":"Jerusalem","title":"The walls of Süleyman","lat":31.78,"lon":35.23},
  {"vol":"ottoman","name":"Damascus","title":"The Hejaz Railway","lat":33.51,"lon":36.30},
  {"vol":"ottoman","name":"İznik","title":"The tile-making city","lat":40.43,"lon":29.72},
  {"vol":"ottoman","name":"Konya","title":"The Mevlana tomb","lat":37.87,"lon":32.49},
  {"vol":"ottoman","name":"Trabzon","title":"The Black Sea outpost","lat":41.00,"lon":39.72},
  {"vol":"ottoman","name":"Cappadocia","title":"The early Christian heartland","lat":38.65,"lon":34.83},
  {"vol":"ottoman","name":"Çanakkale (Gallipoli)","title":"The peninsula of 1915","lat":40.15,"lon":26.41},
  {"vol":"ottoman","name":"Berat","title":"The Ottoman white town","lat":40.71,"lon":19.95},
  {"vol":"ottoman","name":"Rhodes","title":"The fortress the Knights lost","lat":36.43,"lon":28.22},
  {"vol":"ottoman","name":"Wadi Rum","title":"The Hejaz Railway in the desert","lat":29.58,"lon":35.42},

  {"vol":"persia","name":"Persepolis","title":"Takht-e Jamshid","lat":29.93,"lon":52.89},
  {"vol":"persia","name":"Naqsh-e Rostam","title":"The rock tombs","lat":29.99,"lon":52.87},
  {"vol":"persia","name":"Pasargadae","title":"The tomb of Cyrus","lat":30.19,"lon":53.17},
  {"vol":"persia","name":"Shiraz","title":"City of poets and roses","lat":29.59,"lon":52.58},
  {"vol":"persia","name":"Isfahan","title":"Nesf-e Jahan","lat":32.66,"lon":51.67},
  {"vol":"persia","name":"Kashan","title":"The merchant houses","lat":33.98,"lon":51.45},
  {"vol":"persia","name":"Yazd","title":"The desert city and fire temple","lat":31.90,"lon":54.37},
  {"vol":"persia","name":"Tehran","title":"The capital","lat":35.69,"lon":51.39},
  {"vol":"persia","name":"Qom","title":"The Shi'a seminary city","lat":34.64,"lon":50.88},
  {"vol":"persia","name":"Hamadan","title":"Ecbatana","lat":34.80,"lon":48.51},
  {"vol":"persia","name":"Tabriz","title":"The Safavid and Ilkhanid capital","lat":38.07,"lon":46.30},
  {"vol":"persia","name":"Susa (Shush)","title":"The Achaemenid administrative capital","lat":32.19,"lon":48.26},
  {"vol":"persia","name":"Choqa Zanbil","title":"The Elamite ziggurat","lat":32.01,"lon":48.52},
  {"vol":"persia","name":"Mashhad","title":"The shrine of Imam Reza","lat":36.30,"lon":59.61},
  {"vol":"persia","name":"Tus","title":"The tomb of Ferdowsi","lat":36.48,"lon":59.55},
  {"vol":"persia","name":"Samarkand","title":"The Timurid capital","lat":39.65,"lon":66.97},
  {"vol":"persia","name":"Bukhara","title":"The Samanid capital","lat":39.77,"lon":64.42},
  {"vol":"persia","name":"Herat","title":"The Timurid second capital","lat":34.34,"lon":62.20},
  {"vol":"persia","name":"Mumbai — Parsi quarter","title":"The fire temples","lat":18.93,"lon":72.83},
  {"vol":"persia","name":"Westwood Blvd, LA","title":"Tehrangeles","lat":34.06,"lon":-118.44},

  {"vol":"prussia","name":"Berlin","title":"The capital","lat":52.52,"lon":13.40},
  {"vol":"prussia","name":"Potsdam","title":"The summer capital","lat":52.40,"lon":13.07},
  {"vol":"prussia","name":"Rheinsberg","title":"Where Frederick was happy","lat":53.10,"lon":12.90},
  {"vol":"prussia","name":"Küstrin","title":"Where Katte was beheaded","lat":52.59,"lon":14.65},
  {"vol":"prussia","name":"Kaliningrad (Königsberg)","title":"The capital that was not rebuilt","lat":54.71,"lon":20.51},
  {"vol":"prussia","name":"Malbork (Marienburg)","title":"The largest brick castle","lat":54.04,"lon":19.03},
  {"vol":"prussia","name":"Gdańsk (Danzig)","title":"The Hanseatic port","lat":54.35,"lon":18.65},
  {"vol":"prussia","name":"Toruń (Thorn)","title":"The first Teutonic foundation","lat":53.01,"lon":18.61},
  {"vol":"prussia","name":"Olsztyn (Allenstein)","title":"The capital of Warmia","lat":53.78,"lon":20.49},
  {"vol":"prussia","name":"Frombork (Frauenburg)","title":"Copernicus's cathedral","lat":54.36,"lon":19.68},
  {"vol":"prussia","name":"Klaipėda (Memel)","title":"The northern edge","lat":55.71,"lon":21.13},
  {"vol":"prussia","name":"Wrocław (Breslau)","title":"The Silesian capital","lat":51.11,"lon":17.03},
  {"vol":"prussia","name":"Świdnica (Schweidnitz)","title":"A wooden Lutheran cathedral","lat":50.84,"lon":16.49},
  {"vol":"prussia","name":"Książ (Fürstenstein)","title":"The vast Silesian castle","lat":50.83,"lon":16.30},
  {"vol":"prussia","name":"Wittenberg","title":"Where Luther advised","lat":51.87,"lon":12.65},
  {"vol":"prussia","name":"Kraków","title":"Where the duchy was born","lat":50.06,"lon":19.94},
  {"vol":"prussia","name":"Cologne (Köln)","title":"The Catholic capital of Prussia","lat":50.94,"lon":6.96},
  {"vol":"prussia","name":"Koblenz","title":"The fortress at the Rhine bend","lat":50.36,"lon":7.59},
  {"vol":"prussia","name":"Jena & Auerstedt","title":"14 October 1806","lat":50.93,"lon":11.59},
  {"vol":"prussia","name":"Leipzig","title":"Battle of the Nations","lat":51.34,"lon":12.37},
  {"vol":"prussia","name":"Hradec Králové (Königgrätz)","title":"3 July 1866","lat":50.21,"lon":15.83},
  {"vol":"prussia","name":"Sedan","title":"2 September 1870","lat":49.70,"lon":4.94},
  {"vol":"prussia","name":"Hechingen","title":"Burg Hohenzollern","lat":48.35,"lon":8.97},
  {"vol":"prussia","name":"Doorn","title":"The last Kaiser's grave","lat":52.03,"lon":5.34},
  {"vol":"prussia","name":"Yantarny (Palmnicken)","title":"The amber coast","lat":54.87,"lon":19.95},
  {"vol":"prussia","name":"Friedrichsruh","title":"Bismarck's last estate","lat":53.53,"lon":10.47},

  {"vol":"rome","name":"Rome","title":"The capital","lat":41.90,"lon":12.50},
  {"vol":"rome","name":"Ostia Antica","title":"The Roman port","lat":41.76,"lon":12.30},
  {"vol":"rome","name":"Tivoli","title":"Hadrian's Villa","lat":41.96,"lon":12.77},
  {"vol":"rome","name":"Pompeii / Herculaneum","title":"The buried cities","lat":40.75,"lon":14.49},
  {"vol":"rome","name":"Istanbul","title":"Constantinople","lat":41.01,"lon":28.98},
  {"vol":"rome","name":"Ravenna","title":"The fifth-century capital","lat":44.42,"lon":12.20},
  {"vol":"rome","name":"Trier","title":"The northern capital","lat":49.75,"lon":6.64},
  {"vol":"rome","name":"Hadrian's Wall","title":"The northern frontier","lat":55.02,"lon":-2.10},
  {"vol":"rome","name":"Mérida","title":"Augusta Emerita","lat":38.92,"lon":-6.34},
  {"vol":"rome","name":"Volubilis","title":"The Mauretanian frontier","lat":34.07,"lon":-5.55},
  {"vol":"rome","name":"Ephesus","title":"The capital of Roman Asia","lat":37.94,"lon":27.34},
  {"vol":"rome","name":"Aphrodisias","title":"The marble city","lat":37.71,"lon":28.74},
  {"vol":"rome","name":"Jerash","title":"Gerasa","lat":32.27,"lon":35.89},
  {"vol":"rome","name":"Baalbek","title":"Heliopolis","lat":34.01,"lon":36.20},
  {"vol":"rome","name":"Athens","title":"The Acropolis","lat":37.97,"lon":23.73},
  {"vol":"rome","name":"Thessaloniki","title":"The Tetrarchic capital","lat":40.64,"lon":22.94},
  {"vol":"rome","name":"Leptis Magna","title":"The African birthplace of an emperor","lat":32.64,"lon":14.29},
  {"vol":"rome","name":"Palmyra","title":"The desert capital","lat":34.55,"lon":38.27},
  {"vol":"rome","name":"Split","title":"Diocletian's palace","lat":43.51,"lon":16.44},
  {"vol":"rome","name":"Mount Athos","title":"The monastic survival","lat":40.16,"lon":24.33},

  {"vol":"soviet-union","name":"Moscow","title":"The capital and the Kremlin","lat":55.75,"lon":37.62},
  {"vol":"soviet-union","name":"St Petersburg","title":"The cradle of October","lat":59.93,"lon":30.34},
  {"vol":"soviet-union","name":"Volgograd (Stalingrad)","title":"The hill of the largest battle","lat":48.72,"lon":44.50},
  {"vol":"soviet-union","name":"Star City","title":"The cosmonaut training centre","lat":55.88,"lon":38.00},
  {"vol":"soviet-union","name":"Kyiv","title":"The third Soviet capital","lat":50.45,"lon":30.52},
  {"vol":"soviet-union","name":"Minsk","title":"The post-war reconstruction","lat":53.90,"lon":27.57},
  {"vol":"soviet-union","name":"Yerevan","title":"The Caucasus republic","lat":40.18,"lon":44.51},
  {"vol":"soviet-union","name":"Tbilisi","title":"Stalin's home republic","lat":41.72,"lon":44.79},
  {"vol":"soviet-union","name":"Tashkent","title":"The post-1966 Soviet capital","lat":41.30,"lon":69.24},
  {"vol":"soviet-union","name":"Baikonur","title":"The cosmodrome","lat":45.92,"lon":63.34},
  {"vol":"soviet-union","name":"Vilnius","title":"The KGB headquarters","lat":54.69,"lon":25.28},
  {"vol":"soviet-union","name":"Tallinn","title":"The Vabamu Museum","lat":59.44,"lon":24.75},
  {"vol":"soviet-union","name":"Chernobyl","title":"The exclusion zone","lat":51.27,"lon":30.22},
  {"vol":"soviet-union","name":"Moynaq","title":"The Aral Sea graveyard","lat":43.77,"lon":59.03},
  {"vol":"soviet-union","name":"Magnitogorsk","title":"The First Five-Year Plan city","lat":53.41,"lon":59.04},
  {"vol":"soviet-union","name":"Akademgorodok","title":"The science city","lat":54.83,"lon":83.10},
  {"vol":"soviet-union","name":"Moscow Metro","title":"The first Soviet underground","lat":55.75,"lon":37.62},
  {"vol":"soviet-union","name":"Tashkent Metro","title":"Central Asian Soviet underground","lat":41.30,"lon":69.24},
  {"vol":"soviet-union","name":"Brighton Beach, NY","title":"Little Odessa","lat":40.58,"lon":-73.96},
  {"vol":"soviet-union","name":"Berlin — Treptower","title":"Soviet War Memorial","lat":52.49,"lon":13.47},

  {"vol":"yugoslavia","name":"Belgrade","title":"The federal capital","lat":44.79,"lon":20.45},
  {"vol":"yugoslavia","name":"Novi Sad","title":"The northern provincial capital","lat":45.25,"lon":19.84},
  {"vol":"yugoslavia","name":"Kumrovec","title":"Tito's birthplace","lat":46.07,"lon":15.68},
  {"vol":"yugoslavia","name":"Sarajevo","title":"The capital of mixed Bosnia","lat":43.86,"lon":18.41},
  {"vol":"yugoslavia","name":"Mostar","title":"Stari Most","lat":43.34,"lon":17.81},
  {"vol":"yugoslavia","name":"Srebrenica","title":"The Potočari memorial","lat":44.10,"lon":19.30},
  {"vol":"yugoslavia","name":"Dubrovnik","title":"Pearl of the Adriatic","lat":42.65,"lon":18.09},
  {"vol":"yugoslavia","name":"Split","title":"Diocletian's palace","lat":43.51,"lon":16.44},
  {"vol":"yugoslavia","name":"Vis","title":"Tito's island","lat":43.06,"lon":16.18},
  {"vol":"yugoslavia","name":"Ljubljana","title":"The northern capital","lat":46.06,"lon":14.51},
  {"vol":"yugoslavia","name":"Skopje","title":"Earthquake city","lat":42.00,"lon":21.43},
  {"vol":"yugoslavia","name":"Pristina","title":"Youngest capital in Europe","lat":42.67,"lon":21.17},
  {"vol":"yugoslavia","name":"Tjentište","title":"The Sutjeska monument","lat":43.34,"lon":18.69},
  {"vol":"yugoslavia","name":"Petrova Gora","title":"The collapsing concrete tower","lat":45.30,"lon":15.78},
  {"vol":"yugoslavia","name":"Kozara","title":"Džamonja's vertical fins","lat":44.97,"lon":16.92},
  {"vol":"yugoslavia","name":"Goli Otok","title":"The naked island","lat":44.85,"lon":14.81},
  {"vol":"yugoslavia","name":"Bled","title":"Tito's lake","lat":46.37,"lon":14.11},
  {"vol":"yugoslavia","name":"Kotor","title":"The Adriatic fjord","lat":42.42,"lon":18.77},
  {"vol":"yugoslavia","name":"Ohrid","title":"The medieval lake","lat":41.11,"lon":20.80},
  {"vol":"yugoslavia","name":"Avala","title":"The Unknown Hero monument","lat":44.69,"lon":20.51}
]
